[
    {
      "city": "Saywun",
      "city_old": "Saywun",
      "lat": 15.94299196,
      "lon": 48.78734737,
      "country": 68747,
      "country_code": "Yemen",
      "country_code2": "YE",
      "somethingelse": "YEM"
    },
    {
      "city": "Sadah",
      "city_old": "Sadah",
      "lat": 16.93977867,
      "lon": 43.84976762,
      "country": 105542,
      "country_code": "Yemen",
      "country_code2": "YE",
      "somethingelse": "YEM"
    },
    {
      "city": "Al Hudaydah",
      "city_old": "Al Hudaydah",
      "lat": 14.79794558,
      "lon": 42.95297481,
      "country": 627610.5,
      "country_code": "Yemen",
      "country_code2": "YE",
      "somethingelse": "YEM"
    },
    {
      "city": "Sayhut",
      "city_old": "Sayhut",
      "lat": 15.21050437,
      "lon": 51.24544023,
      "country": 189,
      "country_code": "Yemen",
      "country_code2": "YE",
      "somethingelse": "YEM"
    },
    {
      "city": "Al Mukalla",
      "city_old": "Al Mukalla",
      "lat": 14.54116538,
      "lon": 49.12593135,
      "country": 194080.5,
      "country_code": "Yemen",
      "country_code2": "YE",
      "somethingelse": "YEM"
    },
    {
      "city": "Taizz",
      "city_old": "Taizz",
      "lat": 13.60445253,
      "lon": 44.03942012,
      "country": 683111,
      "country_code": "Yemen",
      "country_code2": "YE",
      "somethingelse": "YEM"
    },
    {
      "city": "Aden",
      "city_old": "Aden",
      "lat": 12.77972251,
      "lon": 45.00949011,
      "country": 775301,
      "country_code": "Yemen",
      "country_code2": "YE",
      "somethingelse": "YEM"
    },
    {
      "city": "Sanaa",
      "city_old": "Sanaa",
      "lat": 15.3547333,
      "lon": 44.20659338,
      "country": 1921926.5,
      "country_code": "Yemen",
      "country_code2": "YE",
      "somethingelse": "YEM"
    },
    {
      "city": "Kawambwa",
      "city_old": "Kawambwa",
      "lat": -9.779520651,
      "lon": 29.08002315,
      "country": 20355,
      "country_code": "Zambia",
      "country_code2": "ZM",
      "somethingelse": "ZMB"
    },
    {
      "city": "Nchelenge",
      "city_old": "Nchelenge",
      "lat": -9.349572735,
      "lon": 28.73001868,
      "country": 15904,
      "country_code": "Zambia",
      "country_code2": "ZM",
      "somethingelse": "ZMB"
    },
    {
      "city": "Chinsali",
      "city_old": "Chinsali",
      "lat": -10.54960285,
      "lon": 32.0599963,
      "country": 7482.5,
      "country_code": "Zambia",
      "country_code2": "ZM",
      "somethingelse": "ZMB"
    },
    {
      "city": "Kasama",
      "city_old": "Kasama",
      "lat": -10.19959837,
      "lon": 31.17994665,
      "country": 156500,
      "country_code": "Zambia",
      "country_code2": "ZM",
      "somethingelse": "ZMB"
    },
    {
      "city": "Kapiri Mposhi",
      "city_old": "Kapiri Mposhi",
      "lat": -13.96960081,
      "lon": 28.65999711,
      "country": 30078,
      "country_code": "Zambia",
      "country_code2": "ZM",
      "somethingelse": "ZMB"
    },
    {
      "city": "Mumbwa",
      "city_old": "Mumbwa",
      "lat": -14.97961668,
      "lon": 27.07001664,
      "country": 14408.5,
      "country_code": "Zambia",
      "country_code2": "ZM",
      "somethingelse": "ZMB"
    },
    {
      "city": "Chingola",
      "city_old": "Chingola",
      "lat": -12.53961058,
      "lon": 27.85002071,
      "country": 165289.5,
      "country_code": "Zambia",
      "country_code2": "ZM",
      "somethingelse": "ZMB"
    },
    {
      "city": "Chililabombwe",
      "city_old": "Chililabombwe",
      "lat": -12.36959511,
      "lon": 27.8199967,
      "country": 69698,
      "country_code": "Zambia",
      "country_code2": "ZM",
      "somethingelse": "ZMB"
    },
    {
      "city": "Nyimba",
      "city_old": "Nyimba",
      "lat": -14.54951373,
      "lon": 30.80999508,
      "country": 814,
      "country_code": "Zambia",
      "country_code2": "ZM",
      "somethingelse": "ZMB"
    },
    {
      "city": "Lundazi",
      "city_old": "Lundazi",
      "lat": -12.28954832,
      "lon": 33.17000606,
      "country": 9540.5,
      "country_code": "Zambia",
      "country_code2": "ZM",
      "somethingelse": "ZMB"
    },
    {
      "city": "Chipata",
      "city_old": "Chipata",
      "lat": -13.62956989,
      "lon": 32.64001257,
      "country": 82455,
      "country_code": "Zambia",
      "country_code2": "ZM",
      "somethingelse": "ZMB"
    },
    {
      "city": "Mwinilunga",
      "city_old": "Mwinilunga",
      "lat": -11.73955605,
      "lon": 24.4399963,
      "country": 8336.5,
      "country_code": "Zambia",
      "country_code2": "ZM",
      "somethingelse": "ZMB"
    },
    {
      "city": "Kasempa",
      "city_old": "Kasempa",
      "lat": -13.4596061,
      "lon": 25.82001542,
      "country": 5622,
      "country_code": "Zambia",
      "country_code2": "ZM",
      "somethingelse": "ZMB"
    },
    {
      "city": "Solwezi",
      "city_old": "Solwezi",
      "lat": -12.17958087,
      "lon": 26.39998002,
      "country": 51793.5,
      "country_code": "Zambia",
      "country_code2": "ZM",
      "somethingelse": "ZMB"
    },
    {
      "city": "Choma",
      "city_old": "Choma",
      "lat": -16.80947915,
      "lon": 26.97002274,
      "country": 42324,
      "country_code": "Zambia",
      "country_code2": "ZM",
      "somethingelse": "ZMB"
    },
    {
      "city": "Mongu",
      "city_old": "Mongu",
      "lat": -15.27959837,
      "lon": 23.12002519,
      "country": 45098.5,
      "country_code": "Zambia",
      "country_code2": "ZM",
      "somethingelse": "ZMB"
    },
    {
      "city": "Kaoma",
      "city_old": "Kaoma",
      "lat": -14.77962889,
      "lon": 24.79997432,
      "country": 7259,
      "country_code": "Zambia",
      "country_code2": "ZM",
      "somethingelse": "ZMB"
    },
    {
      "city": "Sesheke",
      "city_old": "Sesheke",
      "lat": -17.46954222,
      "lon": 24.30000484,
      "country": 10177.5,
      "country_code": "Zambia",
      "country_code2": "ZM",
      "somethingelse": "ZMB"
    },
    {
      "city": "Lukulu",
      "city_old": "Lukulu",
      "lat": -14.38957518,
      "lon": 23.24001786,
      "country": 3349,
      "country_code": "Zambia",
      "country_code2": "ZM",
      "somethingelse": "ZMB"
    },
    {
      "city": "Kalabo",
      "city_old": "Kalabo",
      "lat": -14.98959023,
      "lon": 22.68000036,
      "country": 7731,
      "country_code": "Zambia",
      "country_code2": "ZM",
      "somethingelse": "ZMB"
    },
    {
      "city": "Senanga",
      "city_old": "Senanga",
      "lat": -16.11959878,
      "lon": 23.27004187,
      "country": 10005,
      "country_code": "Zambia",
      "country_code2": "ZM",
      "somethingelse": "ZMB"
    },
    {
      "city": "Mansa",
      "city_old": "Mansa",
      "lat": -11.20000242,
      "lon": 28.89000891,
      "country": 31357,
      "country_code": "Zambia",
      "country_code2": "ZM",
      "somethingelse": "ZMB"
    },
    {
      "city": "Mpika",
      "city_old": "Mpika",
      "lat": -11.83004148,
      "lon": 31.45998124,
      "country": 17242.5,
      "country_code": "Zambia",
      "country_code2": "ZM",
      "somethingelse": "ZMB"
    },
    {
      "city": "Mbala",
      "city_old": "Mbala",
      "lat": -8.840043112,
      "lon": 31.37001257,
      "country": 18384,
      "country_code": "Zambia",
      "country_code2": "ZM",
      "somethingelse": "ZMB"
    },
    {
      "city": "Luanshya",
      "city_old": "Luanshya",
      "lat": -13.13332111,
      "lon": 28.40001298,
      "country": 132679,
      "country_code": "Zambia",
      "country_code2": "ZM",
      "somethingelse": "ZMB"
    },
    {
      "city": "Ndola",
      "city_old": "Ndola",
      "lat": -12.99994424,
      "lon": 28.65002356,
      "country": 395428.5,
      "country_code": "Zambia",
      "country_code2": "ZM",
      "somethingelse": "ZMB"
    },
    {
      "city": "Zambezi",
      "city_old": "Zambezi",
      "lat": -13.54001463,
      "lon": 23.10994828,
      "country": 4987.5,
      "country_code": "Zambia",
      "country_code2": "ZM",
      "somethingelse": "ZMB"
    },
    {
      "city": "Kafue",
      "city_old": "Kafue",
      "lat": -15.78003294,
      "lon": 28.18002641,
      "country": 25725.5,
      "country_code": "Zambia",
      "country_code2": "ZM",
      "somethingelse": "ZMB"
    },
    {
      "city": "Mazabuka",
      "city_old": "Mazabuka",
      "lat": -15.86002806,
      "lon": 27.76000036,
      "country": 57874.5,
      "country_code": "Zambia",
      "country_code2": "ZM",
      "somethingelse": "ZMB"
    },
    {
      "city": "Kabwe",
      "city_old": "Kabwe",
      "lat": -14.44001137,
      "lon": 28.44998409,
      "country": 188667,
      "country_code": "Zambia",
      "country_code2": "ZM",
      "somethingelse": "ZMB"
    },
    {
      "city": "Mufulira",
      "city_old": "Mufulira",
      "lat": -12.54999754,
      "lon": 28.25996985,
      "country": 137062,
      "country_code": "Zambia",
      "country_code2": "ZM",
      "somethingelse": "ZMB"
    },
    {
      "city": "Kitwe",
      "city_old": "Kitwe",
      "lat": -12.81003335,
      "lon": 28.22002397,
      "country": 402907.5,
      "country_code": "Zambia",
      "country_code2": "ZM",
      "somethingelse": "ZMB"
    },
    {
      "city": "Livingstone",
      "city_old": "Livingstone",
      "lat": -17.86000934,
      "lon": 25.86001298,
      "country": 137341.5,
      "country_code": "Zambia",
      "country_code2": "ZM",
      "somethingelse": "ZMB"
    },
    {
      "city": "Lusaka",
      "city_old": "Lusaka",
      "lat": -15.41664427,
      "lon": 28.28332759,
      "country": 1297720,
      "country_code": "Zambia",
      "country_code2": "ZM",
      "somethingelse": "ZMB"
    },
    {
      "city": "Mazowe",
      "city_old": "Mazowe",
      "lat": -17.51961668,
      "lon": 30.97003699,
      "country": 9966,
      "country_code": "Zimbabwe",
      "country_code2": "ZW",
      "somethingelse": "ZWE"
    },
    {
      "city": "Shamva",
      "city_old": "Shamva",
      "lat": -17.31962889,
      "lon": 31.57000036,
      "country": 8521,
      "country_code": "Zimbabwe",
      "country_code2": "ZW",
      "somethingelse": "ZWE"
    },
    {
      "city": "Victoria Falls",
      "city_old": "Victoria Falls",
      "lat": -17.92961749,
      "lon": 25.8400142,
      "country": 23964.5,
      "country_code": "Zimbabwe",
      "country_code2": "ZW",
      "somethingelse": "ZWE"
    },
    {
      "city": "Zvishavane",
      "city_old": "Zvishavane",
      "lat": -20.32957436,
      "lon": 30.04998979,
      "country": 34557.5,
      "country_code": "Zimbabwe",
      "country_code2": "ZW",
      "somethingelse": "ZWE"
    },
    {
      "city": "Kwekwe",
      "city_old": "Kwekwe",
      "lat": -18.92960814,
      "lon": 29.79997921,
      "country": 80788,
      "country_code": "Zimbabwe",
      "country_code2": "ZW",
      "somethingelse": "ZWE"
    },
    {
      "city": "Plumtree",
      "city_old": "Plumtree",
      "lat": -20.47953937,
      "lon": 27.8199967,
      "country": 1959.5,
      "country_code": "Zimbabwe",
      "country_code2": "ZW",
      "somethingelse": "ZWE"
    },
    {
      "city": "Beitbridge",
      "city_old": "Beitbridge",
      "lat": -22.20961465,
      "lon": 29.98999345,
      "country": 13759.5,
      "country_code": "Zimbabwe",
      "country_code2": "ZW",
      "somethingelse": "ZWE"
    },
    {
      "city": "Gwanda",
      "city_old": "Gwanda",
      "lat": -20.93961465,
      "lon": 29.01000159,
      "country": 8252.5,
      "country_code": "Zimbabwe",
      "country_code2": "ZW",
      "somethingelse": "ZWE"
    },
    {
      "city": "Chiredzi",
      "city_old": "Chiredzi",
      "lat": -21.04958209,
      "lon": 31.66002071,
      "country": 17816.5,
      "country_code": "Zimbabwe",
      "country_code2": "ZW",
      "somethingelse": "ZWE"
    },
    {
      "city": "Masvingo",
      "city_old": "Masvingo",
      "lat": -20.05961668,
      "lon": 30.8200203,
      "country": 76300.5,
      "country_code": "Zimbabwe",
      "country_code2": "ZW",
      "somethingelse": "ZWE"
    },
    {
      "city": "Karoi",
      "city_old": "Karoi",
      "lat": -16.81955605,
      "lon": 29.67998653,
      "country": 13194,
      "country_code": "Zimbabwe",
      "country_code2": "ZW",
      "somethingelse": "ZWE"
    },
    {
      "city": "Chinhoyi",
      "city_old": "Chinhoyi",
      "lat": -17.35962645,
      "lon": 30.18000769,
      "country": 52812,
      "country_code": "Zimbabwe",
      "country_code2": "ZW",
      "somethingelse": "ZWE"
    },
    {
      "city": "Kariba",
      "city_old": "Kariba",
      "lat": -16.52959959,
      "lon": 28.80004024,
      "country": 23133.5,
      "country_code": "Zimbabwe",
      "country_code2": "ZW",
      "somethingelse": "ZWE"
    },
    {
      "city": "Hwange",
      "city_old": "Hwange",
      "lat": -18.37000405,
      "lon": 26.50002559,
      "country": 33599.5,
      "country_code": "Zimbabwe",
      "country_code2": "ZW",
      "somethingelse": "ZWE"
    },
    {
      "city": "Gweru",
      "city_old": "Gweru",
      "lat": -19.45004148,
      "lon": 29.82002966,
      "country": 164715.5,
      "country_code": "Zimbabwe",
      "country_code2": "ZW",
      "somethingelse": "ZWE"
    },
    {
      "city": "Mutare",
      "city_old": "Mutare",
      "lat": -18.97001911,
      "lon": 32.6500378,
      "country": 216785,
      "country_code": "Zimbabwe",
      "country_code2": "ZW",
      "somethingelse": "ZWE"
    },
    {
      "city": "Kadoma",
      "city_old": "Kadoma",
      "lat": -18.33000649,
      "lon": 29.90994665,
      "country": 56400,
      "country_code": "Zimbabwe",
      "country_code2": "ZW",
      "somethingelse": "ZWE"
    },
    {
      "city": "Chitungwiza",
      "city_old": "Chitungwiza",
      "lat": -18.00000079,
      "lon": 31.10000321,
      "country": 331071,
      "country_code": "Zimbabwe",
      "country_code2": "ZW",
      "somethingelse": "ZWE"
    },
    {
      "city": "Harare",
      "city_old": "Harare",
      "lat": -17.81778969,
      "lon": 31.04470943,
      "country": 1557406.5,
      "country_code": "Zimbabwe",
      "country_code2": "ZW",
      "somethingelse": "ZWE"
    },
    {
      "city": "Bulawayo",
      "city_old": "Bulawayo",
      "lat": -20.16999754,
      "lon": 28.58000199,
      "country": 697096,
      "country_code": "Zimbabwe",
      "country_code2": "ZW",
      "somethingelse": "ZWE"
    }
  ]